{
"type": "FeatureCollection",
"crs": { "type": "name", "properties": { "name": "urn:ogc:def:crs:OGC:1.3:CRS84" } },
                                                                                
"features": [
{ "type": "Feature", "properties": { "OBJECTID": 1, "name": "Muzeum Skansen Kultury Łemkowskiej", "address": "Zyndranowa 1, 38-454 Zyndranowa", "phoneNumbe": "13 433 07 12", "snippet": "Zyndranowa 1, 38-454 Zyndranowa", "x": 21.712050, "y": 49.437347 }, "geometry": { "type": "Point", "coordinates": [ 21.7120502, 49.4373472 ] } },
{ "type": "Feature", "properties": { "OBJECTID": 2, "name": "Muzeum Przemysłu Naftowego i Gazownictwa im. Ignacego Łukasiewicza w Bóbrce", "address": "Bóbrka, 38-458 Chorkówka", "phoneNumbe": "13 433 34 78", "snippet": "Bóbrka, 38-458 Chorkówka", "x": 21.710449, "y": 49.616468 }, "geometry": { "type": "Point", "coordinates": [ 21.7104489, 49.6164677 ] } },
{ "type": "Feature", "properties": { "OBJECTID": 3, "name": "Skansen Archeologiczny Karpacka Troja", "address": "Trzcinica 646, 38-207 Przysieki", "phoneNumbe": "13 440 50 40", "snippet": "Trzcinica 646, 38-207 Przysieki", "x": 21.433210, "y": 49.732053 }, "geometry": { "type": "Point", "coordinates": [ 21.4332104, 49.7320525 ] } },
{ "type": "Feature", "properties": { "OBJECTID": 4, "name": "Muzeum Kamienica Orsettich", "address": "Rynek 4, Jarosław", "phoneNumbe": "16 621 37 31", "snippet": "Rynek 4, Jarosław", "x": 22.683800, "y": 50.018198 }, "geometry": { "type": "Point", "coordinates": [ 22.6838004, 50.0181979 ] } },
{ "type": "Feature", "properties": { "OBJECTID": 5, "name": "Muzeum Regionalne w Stalowej Woli", "address": "Sandomierska 1, Stalowa Wola", "phoneNumbe": "15 844 85 56", "snippet": "Sandomierska 1, Stalowa Wola", "x": 22.041677, "y": 50.593862 }, "geometry": { "type": "Point", "coordinates": [ 22.0416773, 50.5938624 ] } },
{ "type": "Feature", "properties": { "OBJECTID": 6, "name": "Centrum Dziedzictwa Szkła w Krośnie", "address": "Blich 2, 38-400 Krosno", "phoneNumbe": "13 444 00 31", "snippet": "Blich 2, 38-400 Krosno", "x": 21.765853, "y": 49.694457 }, "geometry": { "type": "Point", "coordinates": [ 21.7658529, 49.6944567 ] } },
{ "type": "Feature", "properties": { "OBJECTID": 7, "name": "Muzeum Dzwonów i Fajek", "address": "Muzeum Dzwonów i Fajek, Władycze, 37-700 Przemyśl", "phoneNumbe": null, "snippet": "Muzeum Dzwonów i Fajek, Władycze, 37-700 Przemyśl", "x": 22.773631, "y": 49.781849 }, "geometry": { "type": "Point", "coordinates": [ 22.773631, 49.7818489 ] } },
{ "type": "Feature", "properties": { "OBJECTID": 8, "name": "Muzeum Podkarpackie w Krośnie", "address": "Józefa Piłsudskiego 16, Krosno", "phoneNumbe": "13 432 13 76", "snippet": "Józefa Piłsudskiego 16, Krosno", "x": 21.763563, "y": 49.695455 }, "geometry": { "type": "Point", "coordinates": [ 21.7635626, 49.695454899999902 ] } },
{ "type": "Feature", "properties": { "OBJECTID": 9, "name": "Muzeum Kultury Ludowej", "address": "Wolska 36, 36-100 Kolbuszowa", "phoneNumbe": "17 227 12 96", "snippet": "Wolska 36, 36-100 Kolbuszowa", "x": 21.756755, "y": 50.224736 }, "geometry": { "type": "Point", "coordinates": [ 21.756755, 50.224736 ] } },
{ "type": "Feature", "properties": { "OBJECTID": 10, "name": "Muzeum Budownictwa Ludowego", "address": "Aleksandra Rybickiego 3, 38-500 Sanok", "phoneNumbe": "13 463 16 72", "snippet": "Aleksandra Rybickiego 3, 38-500 Sanok", "x": 22.217556, "y": 49.572869 }, "geometry": { "type": "Point", "coordinates": [ 22.2175556, 49.5728689 ] } },
{ "type": "Feature", "properties": { "OBJECTID": 11, "name": "Muzeum Etnograficzne im. Franciszka Kotuli - Oddział Muzeum Okręgowego", "address": "Rynek 6, Rzeszów", "phoneNumbe": "17 862 02 17", "snippet": "Rynek 6, Rzeszów", "x": 22.004349, "y": 50.037204 }, "geometry": { "type": "Point", "coordinates": [ 22.0043492, 50.0372037 ] } },
{ "type": "Feature", "properties": { "OBJECTID": 12, "name": "Muzeum Narodowe Ziemi Przemyskiej", "address": "Plac płk. Berka Joselewicza 1, 37-700 Przemyśl", "phoneNumbe": "16 679 30 00", "snippet": "Plac płk. Berka Joselewicza 1, 37-700 Przemyśl", "x": 22.771786, "y": 49.783055 }, "geometry": { "type": "Point", "coordinates": [ 22.771786, 49.783054999999898 ] } },
{ "type": "Feature", "properties": { "OBJECTID": 13, "name": "Muzeum Rzemiosła w Krośnie", "address": "Józefa Piłsudskiego 19, Krosno", "phoneNumbe": "13 432 41 88", "snippet": "Józefa Piłsudskiego 19, Krosno", "x": 21.763142, "y": 49.695256 }, "geometry": { "type": "Point", "coordinates": [ 21.7631422, 49.6952559 ] } },
{ "type": "Feature", "properties": { "OBJECTID": 14, "name": "Muzeum Lalek", "address": "Grodzka 24, 39-220 Pilzno", "phoneNumbe": "14 672 13 21", "snippet": "Grodzka 24, 39-220 Pilzno", "x": 21.291659, "y": 49.976785 }, "geometry": { "type": "Point", "coordinates": [ 21.2916592, 49.9767855 ] } },
{ "type": "Feature", "properties": { "OBJECTID": 15, "name": "Muzeum Prowincji Ojców Bernardynów", "address": "plac Mariacki 8, 37-300 Leżajsk", "phoneNumbe": "725 305 777", "snippet": "plac Mariacki 8, 37-300 Leżajsk", "x": 22.408982, "y": 50.270668 }, "geometry": { "type": "Point", "coordinates": [ 22.408982, 50.2706684 ] } },
{ "type": "Feature", "properties": { "OBJECTID": 16, "name": "Muzeum Gorzelnictwa", "address": "Kolejowa 1, 37-100 Łańcut", "phoneNumbe": "17 225 20 08", "snippet": "Kolejowa 1, 37-100 Łańcut", "x": 22.229291, "y": 50.081036 }, "geometry": { "type": "Point", "coordinates": [ 22.2292909, 50.081036 ] } },
{ "type": "Feature", "properties": { "OBJECTID": 17, "name": "Muzeum Kresów", "address": "Jana III Sobieskiego, 37-600 Lubaczów", "phoneNumbe": "16 632 18 02", "snippet": "Jana III Sobieskiego, 37-600 Lubaczów", "x": 23.128258, "y": 50.153437 }, "geometry": { "type": "Point", "coordinates": [ 23.1282575, 50.1534366 ] } },
{ "type": "Feature", "properties": { "OBJECTID": 18, "name": "Muzeum Historyczne Miasta Tarnobrzega", "address": "Sandomierska 27, Tarnobrzeg", "phoneNumbe": "15 823 79 99", "snippet": "Sandomierska 27, Tarnobrzeg", "x": 21.683607, "y": 50.585753 }, "geometry": { "type": "Point", "coordinates": [ 21.6836068, 50.585752699999901 ] } },
{ "type": "Feature", "properties": { "OBJECTID": 19, "name": "Muzeum Dobranocek", "address": "Adama Mickiewicza 13, 35-064 Rzeszów", "phoneNumbe": "17 852 57 15", "snippet": "Adama Mickiewicza 13, 35-064 Rzeszów", "x": 22.006648, "y": 50.037818 }, "geometry": { "type": "Point", "coordinates": [ 22.0066479, 50.0378179 ] } }
]
}
